county,state,lat,lon,clay,silt,sand,organic_carbon,pH,bulk_density
Boone,Iowa,42.01718,-93.92541,28.5,42,29.5,2.1,6.5,1.3
Lancaster,Nebraska,40.8000,-96.6670,25,50,25,1.8,6.8,1.4
Johnson,Iowa,41.6611,-91.5302,30,45,25,2.3,6.4,1.25
Douglas,Nebraska,41.2565,-95.9345,27,48,25,1.9,6.7,1.35
Polk,Iowa,41.6278,-93.5982,26,44,30,2.0,6.6,1.32
